City_ID,City,Lat,Lng,Max Temp,Humidity,Cloudiness,Wind Speed,Country,Date
0,hithadhoo,-0.6,73.0833,27.58,73,21,2.78,MV,1675880501
1,thinadhoo,0.5333,72.9333,27.54,72,41,3.84,MV,1675880502
2,cape town,-33.9258,18.4232,23.84,62,0,5.36,ZA,1675880258
3,rikitea,-23.1203,-134.9692,26.25,75,5,6.29,PF,1675880502
4,chernyakhiv,50.4565,28.6702,-10.18,93,7,0.78,UA,1675880502
5,new norfolk,-42.7826,147.0587,13.72,94,100,0.86,AU,1675880266
6,klaksvik,62.2266,-6.589,1.51,61,76,14.72,FO,1675880376
7,long beach,33.767,-118.1892,22.19,40,0,0.89,US,1675880316
8,punta arenas,-53.15,-70.9167,22.01,60,100,7.72,CL,1675880504
9,albany,42.6001,-73.9662,7.58,55,61,1.79,US,1675880505
10,tuktoyaktuk,69.4541,-133.0374,-36.0,75,20,2.06,CA,1675880217
11,ancud,-41.8697,-73.8203,18.56,71,5,4.22,CL,1675880506
12,nikolskoye,59.7035,30.7861,1.94,94,100,2.98,RU,1675880262
13,thompson,55.7435,-97.8558,-8.91,86,40,1.54,CA,1675880506
14,pokrovsk,48.282,37.1758,-7.48,88,6,5.75,UA,1675880506
15,tarauaca,-8.1614,-70.7656,27.45,84,29,1.65,BR,1675880507
16,busselton,-33.65,115.3333,15.4,88,0,5.07,AU,1675880507
17,curup,-3.4667,102.5333,18.87,94,96,0.72,ID,1675880508
18,sosnovo-ozerskoye,52.5249,111.5418,-24.31,100,87,1.17,RU,1675880508
19,laem sing,12.4816,102.0738,29.52,83,11,2.15,TH,1675880509
20,novyy urgal,51.0736,132.5642,-37.52,99,47,0.62,RU,1675880509
21,ushuaia,-54.8,-68.3,21.81,40,75,4.63,AR,1675880510
22,aquiraz,-3.9014,-38.3911,29.05,65,42,4.98,BR,1675880510
23,castro,-24.7911,-50.0119,26.35,49,15,2.35,BR,1675880089
24,amarpur,25.0333,86.9,17.22,57,0,2.55,IN,1675880510
25,marystown,47.1666,-55.1483,-1.36,88,100,5.99,CA,1675880511
26,qaanaaq,77.484,-69.3632,-32.45,68,16,2.79,GL,1675880340
27,lagoa,39.05,-27.9833,13.63,58,95,6.08,PT,1675880511
28,arraial do cabo,-22.9661,-42.0278,28.98,74,20,4.12,BR,1675880512
29,chuy,-33.6971,-53.4616,26.19,64,52,4.41,UY,1675880512
30,biskamzha,53.4497,89.5272,-17.47,99,98,0.49,RU,1675880513
31,kapaa,22.0752,-159.319,24.18,79,20,9.26,US,1675880514
32,avarua,-21.2078,-159.775,26.03,89,40,2.06,CK,1675880514
33,arman,59.7,150.1667,-28.45,85,64,3.99,RU,1675880514
34,cherskiy,68.75,161.3,-31.18,98,100,3.43,RU,1675880515
35,ahuimanu,21.4447,-157.8378,23.84,72,40,8.23,US,1675880515
36,longyearbyen,78.2186,15.6401,-4.09,86,75,6.69,SJ,1675880516
37,saint-philippe,-21.3585,55.7679,25.77,83,56,5.34,RE,1675880516
38,yar-sale,66.8333,70.8333,-10.48,95,99,5.46,RU,1675880517
39,gravdal,68.1214,13.5031,5.94,93,100,20.58,NO,1675880517
40,puerto ayora,-0.7393,-90.3518,29.98,89,85,4.47,EC,1675880517
41,hobart,-42.8794,147.3294,13.92,84,100,2.57,AU,1675880218
42,cavalcante,-13.7975,-47.4583,29.18,47,51,1.61,BR,1675880518
43,caborca,30.5838,-111.101,14.17,23,46,1.67,MX,1675880518
44,kavieng,-2.5744,150.7967,27.04,78,100,3.96,PG,1675880519
45,luangwa,-15.6167,30.4167,23.8,86,57,1.36,ZM,1675880519
46,mason city,43.1536,-93.201,3.94,77,0,4.12,US,1675880239
47,narsaq,60.9167,-46.05,-12.88,93,100,4.85,GL,1675880520
48,phayakkhaphum phisai,15.5163,103.1937,30.09,46,47,2.49,TH,1675880520
49,chippewa falls,44.9369,-91.3929,4.43,72,0,2.57,US,1675880402
50,saint-leu,-21.15,55.2833,25.48,78,34,3.7,RE,1675880521
51,ambilobe,-13.2,49.05,23.15,95,96,0.8,MG,1675880521
52,bredasdorp,-34.5322,20.0403,20.41,72,1,7.55,ZA,1675880452
53,san vicente,-26.6167,-54.1333,35.33,18,2,1.9,AR,1675880522
54,rancho palos verdes,33.7445,-118.387,20.77,43,0,1.34,US,1675880459
55,rio claro,-22.4114,-47.5614,27.49,63,59,2.51,BR,1675880523
56,butaritari,3.0707,172.7902,26.81,83,84,9.5,KI,1675880524
57,ilulissat,69.2167,-51.1,-21.99,59,0,2.57,GL,1675880486
58,haines junction,60.7522,-137.5108,-17.03,78,97,1.03,CA,1675880525
59,salalah,17.0151,54.0924,24.05,78,0,0.0,OM,1675880525
60,ushtobe,45.2514,77.9838,-4.37,84,100,2.16,KZ,1675880526
61,mahebourg,-20.4081,57.7,26.25,83,40,2.06,MU,1675880527
62,atuona,-9.8,-139.0333,26.18,80,18,8.48,PF,1675880268
63,aklavik,68.2191,-135.0107,-29.0,76,100,0.0,CA,1675880527
64,waipawa,-41.4122,175.5153,11.5,87,3,2.46,NZ,1675880263
65,ossora,59.2353,163.0719,-18.47,98,100,4.61,RU,1675880530
66,yellowknife,62.456,-114.3525,-24.69,77,20,2.06,CA,1675880530
67,sitka,57.0531,-135.33,1.94,87,100,2.06,US,1675880531
68,palana,59.1167,159.9667,-25.61,96,98,6.51,RU,1675880532
69,jining,35.405,116.5814,4.21,66,100,3.28,CN,1675880533
70,mahon,39.8885,4.2658,10.31,57,20,5.14,ES,1675880534
71,bundaberg,-24.85,152.35,22.34,93,77,1.34,AU,1675880535
72,nome,64.5011,-165.4064,-18.96,84,100,0.0,US,1675880493
73,dunedin,-45.8742,170.5036,10.03,62,9,7.77,NZ,1675880535
74,selma,36.5708,-119.6121,12.88,87,0,2.06,US,1675880536
75,catia la mar,10.6038,-67.0303,29.99,76,50,4.1,VE,1675880537
76,mertert,49.6961,6.4814,2.46,58,0,2.0,LU,1675880537
77,mihai bravu,44.1406,26.0628,-0.66,76,85,4.73,RO,1675880538
78,tabas,33.5959,56.9244,13.12,30,11,4.12,IR,1675880538
79,dawson creek,55.7666,-120.2362,-2.2,69,0,3.6,CA,1675880539
80,republic,37.12,-93.4802,7.43,85,100,3.09,US,1675880540
81,upernavik,72.7868,-56.1549,-31.55,88,22,1.76,GL,1675880540
82,mar del plata,-38.0023,-57.5575,31.02,51,0,4.12,AR,1675880541
83,vaini,-21.2,-175.2,25.09,94,75,2.57,TO,1675880542
84,faanui,-16.4833,-151.75,26.84,75,24,4.76,PF,1675880543
85,solnechnyy,50.7214,136.6319,-27.98,98,96,1.33,RU,1675880543
86,olkusz,50.2813,19.565,-3.34,95,15,1.83,PL,1675880544
87,hilo,19.7297,-155.09,21.08,91,100,2.57,US,1675880545
88,cidreira,-30.1811,-50.2056,27.15,72,3,6.12,BR,1675880545
89,broome,42.2506,-75.833,7.04,59,0,4.63,US,1675880545
90,eydhafushi,5.1033,73.0708,27.21,69,100,2.31,MV,1675880546
91,pataskala,39.9956,-82.6743,8.15,68,0,1.54,US,1675880547
92,igurubi,-4.0,33.7,19.2,89,99,4.42,TZ,1675880549
93,evensk,61.95,159.2333,-28.94,74,14,4.68,RU,1675880379
94,mataura,-46.1927,168.8643,9.15,94,89,3.38,NZ,1675880549
95,three hills,51.7001,-113.2686,-0.77,89,100,4.63,CA,1675880427
96,sao luiz gonzaga,-28.4083,-54.9608,39.65,12,1,2.1,BR,1675880377
97,rio gallegos,-51.6226,-69.2181,24.03,31,75,12.35,AR,1675880550
98,pionerskiy,54.9508,20.2275,-0.09,71,92,7.02,RU,1675880551
99,altamont,42.2068,-121.7372,4.32,78,0,2.06,US,1675880308
100,severo-kurilsk,50.6789,156.125,-6.09,67,82,4.11,RU,1675880552
101,coacalco,19.6317,-99.1103,22.15,26,0,0.72,MX,1675880384
102,olinda,-8.0089,-34.8553,28.85,65,40,3.6,BR,1675880003
103,aksarka,66.5606,67.7975,-4.45,83,45,9.08,RU,1675880553
104,husavik,66.0449,-17.3389,-6.25,75,63,5.77,IS,1675880553
105,pisco,-13.7,-76.2167,26.12,78,0,4.12,PE,1675880554
106,ratnagiri,16.9833,73.3,24.31,52,57,1.98,IN,1675880554
107,linhares,-19.3911,-40.0722,32.44,44,62,3.06,BR,1675880439
108,hay river,60.8156,-115.7999,-20.01,77,0,3.09,CA,1675880556
109,yaan,7.3833,8.5667,32.83,11,84,2.87,NG,1675880556
110,zheleznodorozhnyy,55.7503,38.0042,-2.71,93,100,3.45,RU,1675880556
111,conde,-7.2597,-34.9075,29.7,58,20,6.69,BR,1675880557
112,jamestown,42.097,-79.2353,4.77,60,0,0.0,US,1675880307
113,baruun-urt,46.6806,113.2792,-15.38,91,96,2.6,MN,1675880557
114,katsuura,35.1333,140.3,7.38,82,90,5.52,JP,1675880454
115,rapid city,44.0805,-103.231,10.61,38,20,10.73,US,1675880558
116,san patricio,28.017,-97.5169,13.93,82,93,8.01,US,1675880463
117,port elizabeth,-33.918,25.5701,21.29,79,0,1.79,ZA,1675880559
118,springdale,36.1867,-94.1288,7.85,96,100,5.14,US,1675880305
119,pevek,69.7008,170.3133,-32.02,100,100,3.08,RU,1675880560
120,edelira,-26.75,-55.2667,39.52,15,7,0.82,PY,1675880560
121,hambantota,6.1241,81.1185,24.61,79,70,6.02,LK,1675880561
122,tighina,46.8306,29.4711,-2.57,68,2,4.17,MD,1675880561
123,puerto escondido,15.85,-97.0667,32.46,62,0,2.57,MX,1675880562
124,upata,8.0086,-62.3989,27.88,45,95,2.86,VE,1675880562
125,dikson,73.5069,80.5464,-15.58,79,100,6.64,RU,1675880319
126,daru,-9.0763,143.2092,24.67,93,100,5.84,PG,1675880563
127,chadan,51.2833,91.5833,-24.08,96,100,0.92,RU,1675880563
128,asau,46.4333,26.4,-9.29,96,49,2.05,RO,1675880563
129,nkhata bay,-11.6066,34.2907,23.92,77,92,3.75,MW,1675880564
130,meulaboh,4.1363,96.1285,24.08,89,100,1.72,ID,1675880564
131,nimaj,26.1497,74.0,18.94,25,3,1.89,IN,1675880565
132,ostrovnoy,68.0531,39.5131,-1.59,74,65,15.45,RU,1675880566
133,broken hill,-31.95,141.4333,23.48,22,2,1.75,AU,1675880566
134,saldanha,-33.0117,17.9442,19.16,84,29,6.36,ZA,1675880566
135,port hardy,50.6996,-127.4199,2.1,100,75,1.03,CA,1675880387
136,hami,42.8,93.45,0.3,59,27,2.66,CN,1675880567
137,kurilsk,45.2333,147.8833,-5.26,57,100,5.24,RU,1675880567
138,ouegoa,-20.35,164.4333,25.65,89,100,2.16,NC,1675880568
139,margate,51.3813,1.3862,5.5,65,32,0.45,GB,1675880568
140,port alfred,-33.5906,26.891,21.21,85,100,3.26,ZA,1675880564
141,melbu,68.5044,14.8297,5.9,75,75,12.86,NO,1675880569
142,lompoc,34.6391,-120.4579,19.88,62,0,1.54,US,1675880569
143,pinega,64.7001,43.3936,-5.35,92,10,4.05,RU,1675880569
144,vangaindrano,-23.35,47.6,23.6,92,100,2.42,MG,1675880570
145,san carlos de bariloche,-41.1456,-71.3082,27.36,21,0,6.17,AR,1675880570
146,zorritos,-3.6805,-80.6782,31.16,65,25,5.16,PE,1675880570
147,chistogorskiy,53.9835,87.3843,-14.29,98,98,0.46,RU,1675880571
148,kodinsk,58.6881,99.1844,-11.39,97,100,1.41,RU,1675880571
149,bluff,-46.6,168.3333,9.33,69,72,10.17,NZ,1675880572
150,karari,25.45,81.4333,15.06,43,0,2.6,IN,1675880572
151,denpasar,-8.65,115.2167,26.81,88,40,1.54,ID,1675880321
152,sao filipe,14.8961,-24.4956,20.95,70,81,3.63,CV,1675880573
153,ullapool,57.8987,-5.1604,4.08,97,100,9.85,GB,1675880573
154,ponnani,10.767,75.9252,26.62,82,61,1.15,IN,1675880574
155,bengkulu,-3.8004,102.2655,23.99,87,89,2.35,ID,1675880574
156,bandarbeyla,9.4942,50.8122,24.57,78,7,3.93,SO,1675880575
157,gayny,60.3071,54.3241,-4.43,96,100,2.19,RU,1675880576
158,ribeira grande,38.5167,-28.7,14.87,54,20,3.09,PT,1675880574
159,nanortalik,60.1432,-45.2371,-0.6,81,100,5.18,GL,1675880576
160,masterton,-40.9597,175.6575,10.6,93,6,0.91,NZ,1675880386
161,villarrica,-25.75,-56.4333,41.13,16,18,1.08,PY,1675880563
162,kodiak,57.79,-152.4072,-8.27,73,0,3.09,US,1675880558
163,brest,52.1,23.7,-2.95,81,22,2.33,BY,1675880577
164,ponta do sol,32.6667,-17.1,16.51,68,62,2.8,PT,1675880577
165,teguldet,57.3064,88.1667,-15.97,98,98,1.65,RU,1675880507
166,saint-georges,12.0564,-61.7485,28.82,70,20,7.72,GD,1675880578
167,roald,62.5833,6.1333,10.18,53,20,13.38,NO,1675880578
168,peruibe,-24.32,-46.9983,28.22,64,10,3.78,BR,1675880578
169,torbay,47.6666,-52.7314,1.33,95,100,8.75,CA,1675880579
170,niono,14.2526,-5.993,34.19,11,0,3.88,ML,1675880579
171,carnarvon,-24.8667,113.6333,25.5,76,10,9.53,AU,1675880333
172,yashkino,55.8736,85.4265,-16.57,97,100,1.23,RU,1675880579
173,cabra,37.4725,-4.4421,10.47,70,75,0.69,ES,1675880580
174,sioux lookout,50.1001,-91.917,-1.96,74,100,1.54,CA,1675880424
175,harper,4.375,-7.7169,27.58,76,94,2.42,LR,1675880581
176,saint george,37.1041,-113.5841,9.41,45,0,0.89,US,1675880581
177,luganville,-15.5333,167.1667,25.26,88,100,3.63,VU,1675880581
178,udachnyy,66.4167,112.4,-41.73,100,97,1.88,RU,1675880585
179,waddan,29.1614,16.139,17.11,24,67,6.35,LY,1675880585
180,georgetown,5.4112,100.3354,26.96,93,20,1.03,MY,1675880348
181,constitucion,-35.3333,-72.4167,22.17,54,4,3.98,CL,1675880586
182,bathsheba,13.2167,-59.5167,29.34,65,40,9.26,BB,1675880587
183,zaysan,47.4667,84.8667,-10.35,90,100,0.89,KZ,1675880588
184,mantua,45.1667,10.7833,2.97,62,1,5.81,IT,1675880550
185,east london,-33.0153,27.9116,20.52,94,100,1.54,ZA,1675880589
186,kapoeta,4.7717,33.5903,32.14,20,15,5.75,SS,1675880589
187,geraldton,-28.7667,114.6,21.23,83,0,5.14,AU,1675880590
188,pangnirtung,66.1451,-65.7125,-28.0,63,20,0.0,CA,1675880590
189,darhan,49.4867,105.9228,-23.52,100,53,1.68,MN,1675880591
190,piacabucu,-10.4056,-36.4344,28.54,54,74,4.78,BR,1675880591
191,killybegs,54.6333,-8.45,5.84,84,100,8.36,IE,1675880592
192,olga,43.7444,135.2892,-14.83,82,4,2.33,RU,1675880593
193,hafizabad,32.0679,73.6854,13.73,43,4,2.35,PK,1675880593
194,salinas,36.6777,-121.6555,17.13,62,0,3.6,US,1675880549
195,san cristobal,7.7669,-72.225,26.1,37,78,3.45,VE,1675880378
196,guerrero negro,27.9769,-114.0611,17.71,29,0,0.49,MX,1675880594
197,barrow,71.2906,-156.7887,-26.99,76,100,1.54,US,1675880571
198,shelburne,44.0787,-80.2041,5.25,74,31,3.83,CA,1675880437
199,quatre cocos,-20.2078,57.7625,26.16,80,80,4.57,MU,1675880596
200,matamoros,25.5333,-103.25,15.06,29,75,7.2,MX,1675880531
201,fortuna,40.5982,-124.1573,9.4,93,100,0.45,US,1675880597
202,kabinda,-6.1333,24.4833,19.52,92,97,0.49,CD,1675880598
203,dingle,10.9995,122.6711,22.77,92,95,3.55,PH,1675880557
204,jiayuguan,39.8167,98.3,-3.18,61,30,1.84,CN,1675880599
205,tachov,49.7953,12.6337,-2.42,79,1,2.24,CZ,1675880599
206,vestmannaeyjar,63.4427,-20.2734,-1.45,80,40,16.98,IS,1675880600
207,airai,-8.9266,125.4092,15.48,96,94,0.75,TL,1675880334
208,carlagan,14.975,122.0456,25.07,77,100,6.64,PH,1675880602
209,qaqortoq,60.7167,-46.0333,-5.5,93,100,3.05,GL,1675880602
210,vestmanna,62.1564,-7.1664,1.51,75,75,7.72,FO,1675880603
211,rawson,-43.3002,-65.1023,32.16,19,0,5.14,AR,1675880448
212,hualmay,-11.0964,-77.6139,25.95,69,70,5.01,PE,1675880604
213,muisne,0.6,-80.0333,28.13,71,64,4.37,EC,1675880605
214,ahipara,-35.1667,173.1667,16.57,84,3,2.76,NZ,1675880606
215,byron bay,-28.65,153.6167,19.41,84,65,3.58,AU,1675880606
216,kudahuvadhoo,2.6708,72.8944,27.33,71,84,4.54,MV,1675880376
217,anloga,5.7947,0.8973,27.84,78,99,5.57,GH,1675880608
218,codrington,-38.2667,141.9667,11.94,87,58,2.71,AU,1675880398
219,srednekolymsk,67.45,153.6833,-32.58,97,100,2.75,RU,1675880609
220,bolu,40.6667,31.5833,-5.57,96,98,1.17,TR,1675880610
221,monrovia,6.3005,-10.7969,28.87,76,100,3.83,LR,1675880610
222,sabha,27.0377,14.4283,18.51,19,68,5.56,LY,1675880611
223,caconda,-13.7333,15.0667,18.57,56,99,1.66,AO,1675880612
224,lasa,46.6166,10.7002,-1.51,92,47,0.19,IT,1675880613
225,penzance,50.1186,-5.5371,8.38,70,55,6.55,GB,1675880613
226,cabo san lucas,22.8909,-109.9124,25.9,39,0,3.6,MX,1675880576
227,camopi,3.1655,-52.3158,26.75,88,68,2.33,GF,1675880614
228,vanimo,-2.6741,141.3028,25.31,93,100,6.82,PG,1675880615
229,ponta delgada,37.7333,-25.6667,14.4,62,75,6.17,PT,1675880615
230,sherlovaya gora,50.5667,116.25,-26.56,92,62,2.09,RU,1675880616
231,ugoofaaru,5.6667,73.0,27.11,69,100,1.71,MV,1675880616
232,anadyr,64.75,177.4833,-33.72,75,0,4.0,RU,1675880336
233,mehamn,71.0357,27.8492,3.97,70,0,17.49,NO,1675880617
234,lethem,3.3803,-59.7968,32.03,62,40,6.17,GY,1675880617
235,orbetello,42.4408,11.2196,5.01,57,18,6.46,IT,1675880618
236,chernyshevskiy,63.0128,112.4714,-44.55,100,70,0.93,RU,1675880619
237,banda aceh,5.5577,95.3222,25.47,83,100,2.86,ID,1675880619
238,khatanga,71.9667,102.5,-43.09,100,77,1.88,RU,1675880332
239,torbat-e jam,35.244,60.6225,8.98,72,51,3.62,IR,1675880620
240,pacific grove,36.6177,-121.9166,15.91,61,0,6.71,US,1675880577
241,hamilton,39.1834,-84.5333,11.91,54,0,2.06,US,1675880530
242,ondarroa,43.3167,-2.4167,9.99,86,6,1.55,ES,1675880621
243,istria,44.5667,28.7167,-3.35,62,96,7.53,RO,1675880621
244,stornoway,58.2093,-6.3865,2.98,89,75,8.75,GB,1675880622
245,estelle,29.8458,-90.1067,26.11,75,75,6.71,US,1675880622
246,smidovich,48.6,133.8167,-29.9,96,7,2.66,RU,1675880622
247,isangel,-19.55,169.2667,25.61,89,100,3.67,VU,1675880623
248,rosario,-32.9468,-60.6393,29.95,42,0,4.63,AR,1675880393
249,cap malheureux,-19.9842,57.6142,26.37,77,68,2.68,MU,1675880624
250,mahibadhoo,3.7833,72.9667,27.25,70,100,3.42,MV,1675880625
251,kirakira,-10.4544,161.9205,26.72,83,100,2.95,SB,1675880625
252,santo antonio do ica,-3.1022,-67.9397,27.5,77,99,0.42,BR,1675880625
253,bonfim,3.0833,-59.95,31.97,37,62,2.76,BR,1675880626
254,raga,8.4596,25.678,23.73,16,5,2.07,SS,1675880473
255,banyo,6.75,11.8167,25.5,16,49,2.03,CM,1675880626
256,south charleston,38.3684,-81.6996,14.93,75,100,0.0,US,1675880615
257,xucheng,20.35,110.1288,20.42,93,13,6.11,CN,1675880627
258,tarbes,43.25,0.1667,6.38,69,100,1.03,FR,1675880628
259,portland,45.5234,-122.6762,9.05,88,75,4.12,US,1675879780
260,taoudenni,22.6783,-3.9836,24.17,12,84,3.82,ML,1675880628
261,poum,-20.2333,164.0167,27.09,81,100,4.01,NC,1675880629
262,urumqi,43.801,87.6005,-10.47,92,100,2.0,CN,1675880422
263,kantabanji,20.4833,82.9167,20.07,29,12,0.6,IN,1675880629
264,cayenne,4.9333,-52.3333,28.02,74,75,5.66,GF,1675880630
265,tasiilaq,65.6145,-37.6368,-15.91,54,0,4.65,GL,1675880630
266,tazovskiy,67.4667,78.7,-14.81,93,100,8.39,RU,1675880631
267,ibarra,0.35,-78.1167,21.96,52,81,1.88,EC,1675880631
268,kavaratti,10.5669,72.642,26.53,75,63,4.46,IN,1675880631
269,hastings,50.8552,0.5729,5.51,19,5,3.37,GB,1675880632
270,bourg-en-bresse,46.1667,5.1667,3.9,74,4,1.02,FR,1675880632
271,adrar,20.5022,-10.0711,23.06,14,100,4.9,MR,1675880633
272,dukat,62.55,155.55,-40.54,100,80,1.69,RU,1675880633
273,xining,36.6167,101.7667,-5.39,83,68,1.49,CN,1675880634
274,provideniya,64.3833,-173.3,-27.72,97,96,1.81,RU,1675880578
275,lebu,-37.6167,-73.65,19.03,72,1,5.56,CL,1675880634
276,bethel,41.3712,-73.414,10.2,55,20,6.17,US,1675880634
277,baoying,33.2292,119.3092,5.57,78,100,4.29,CN,1675880635
278,kyra,49.5776,111.9753,-22.23,98,19,1.88,RU,1675880636
279,mangrol,21.1167,70.1167,22.67,47,5,2.43,IN,1675880636
280,springbok,-29.6643,17.8865,22.16,50,18,4.21,ZA,1675880637
281,moussoro,13.6408,16.4901,25.92,13,95,4.46,TD,1675880515
282,talnakh,69.4865,88.3972,-21.0,96,100,3.86,RU,1675880638
283,divnomorskoye,44.5011,38.1353,-2.83,80,96,13.27,RU,1675880638
284,mineral wells,32.8085,-98.1128,6.47,87,100,6.17,US,1675880638
285,teya,60.3778,92.6267,-16.88,99,100,1.26,RU,1675880639
286,dongsheng,39.8161,109.9776,-3.44,95,100,4.08,CN,1675880639
287,minbu,20.1833,94.8833,20.22,40,0,1.66,MM,1675880640
288,gonbad-e qabus,37.25,55.1672,6.53,80,100,3.81,IR,1675880640
289,luderitz,-26.6481,15.1594,19.04,83,0,8.92,NA,1675880641
290,beidao,34.5686,105.8933,1.0,74,100,1.55,CN,1675880642
291,saskylakh,71.9167,114.0833,-37.52,99,95,2.42,RU,1675880597
292,rafai,4.95,23.9167,26.07,18,6,1.53,CF,1675880643
293,vilhena,-12.7406,-60.1458,29.12,58,40,2.57,BR,1675880644
294,benghazi,32.1167,20.0667,14.36,54,100,7.07,LY,1675880635
295,mizur,42.8531,44.0531,-8.98,96,100,0.99,RU,1675880446
296,tumut,-35.3,148.2167,16.31,91,24,2.3,AU,1675880370
297,mount isa,-20.7333,139.5,24.87,100,100,3.09,AU,1675880645
298,zonguldak,41.25,31.8333,-2.86,99,100,0.39,TR,1675880645
299,vila franca do campo,37.7167,-25.4333,14.23,66,52,4.84,PT,1675880646
300,troitsko-pechorsk,62.7084,56.1964,-0.77,83,71,4.97,RU,1675880646
301,trincomalee,8.5711,81.2335,26.03,82,96,4.52,LK,1675880647
302,bharatpur,27.2167,77.4833,14.87,43,0,2.29,IN,1675880647
303,touros,-5.1989,-35.4608,29.7,54,98,6.35,BR,1675880648
304,flagstaff,35.1981,-111.6513,5.87,34,0,0.45,US,1675880478
305,nuuk,64.1835,-51.7216,-7.66,79,100,10.29,GL,1675880504
306,iqaluit,63.7506,-68.5145,-29.15,69,75,0.0,CA,1675880537
307,kruisfontein,-34.0033,24.7314,19.94,74,100,4.41,ZA,1675880649
308,chebenki,51.9337,55.7077,-20.12,100,23,1.36,RU,1675880649
309,eyl,7.9803,49.8164,24.36,80,11,6.3,SO,1675880650
310,curuguaty,-24.4694,-55.6945,38.0,23,33,0.67,PY,1675880651
311,norman wells,65.282,-126.8329,-27.98,69,75,1.03,CA,1675880654
312,litovko,49.2361,135.1742,-30.29,100,52,1.85,RU,1675880654
313,la palma,33.8464,-118.0467,22.64,37,20,0.45,US,1675880655
314,pasighat,28.0667,95.3333,15.52,64,57,1.45,IN,1675880655
315,kangaatsiaq,68.3065,-53.4641,-27.94,90,16,4.99,GL,1675880656
316,gizo,-8.103,156.8419,27.59,79,100,5.15,SB,1675880657
317,slobozia,46.7281,29.7078,-3.37,65,3,4.78,MD,1675880659
318,waingapu,-9.6567,120.2641,25.29,87,21,3.12,ID,1675880660
319,loei,17.4167,101.5,19.51,62,1,1.37,TH,1675880663
320,esperance,-33.8667,121.9,19.09,74,69,5.2,AU,1675880664
321,ko samui,9.5357,99.9357,27.32,76,22,5.37,TH,1675880623
322,indianola,41.3581,-93.5574,8.84,51,34,1.79,US,1675880665
323,bumba,2.1833,22.4667,26.93,26,25,0.08,CD,1675880665
324,zabol,32.25,67.25,2.67,80,60,3.28,AF,1675880666
325,mount gambier,-37.8333,140.7667,12.5,95,10,1.93,AU,1675880583
326,sabang,5.8933,95.3214,27.52,78,96,5.94,ID,1675880667
327,padang,-0.9492,100.3543,24.03,88,45,1.62,ID,1675880668
328,mogadishu,2.0371,45.3438,25.21,78,8,9.27,SO,1675880669
329,bambous virieux,-20.3428,57.7575,26.23,83,40,2.06,MU,1675880670
330,rovaniemi,66.5,25.7167,0.67,93,100,13.89,FI,1675880670
331,sao joao da barra,-21.6403,-41.0511,27.05,90,97,3.61,BR,1675880634
332,vao,-22.6667,167.4833,25.43,84,100,7.16,NC,1675880671
333,niamey,13.5137,2.1098,34.16,7,88,4.12,NE,1675880671
334,hermanus,-34.4187,19.2345,21.56,65,0,8.95,ZA,1675880375
335,matara,5.9485,80.5353,23.83,85,94,3.33,LK,1675880671
336,port augusta,-32.5,137.7667,25.33,20,2,2.27,AU,1675880672
337,chapais,49.7834,-74.8492,-14.12,88,87,4.36,CA,1675880673
338,kasempa,-13.4584,25.8338,18.1,96,59,2.08,ZM,1675880673
339,vardo,70.3705,31.1107,1.99,75,0,7.2,NO,1675880674
340,oktyabrskoye,43.0645,44.7417,-12.92,92,100,3.0,RU,1675880674
341,kawalu,-7.3817,108.2082,22.42,96,100,0.5,ID,1675880675
342,berlevag,70.8578,29.0864,4.0,70,0,18.01,NO,1675880675
343,ode,7.7899,5.7117,29.91,30,92,2.18,NG,1675880675
344,victoria,22.2855,114.1577,18.87,91,100,5.36,HK,1675880411
345,bom jardim,-7.7958,-35.5872,28.94,52,100,4.72,BR,1675880677
346,havoysund,70.9963,24.6622,4.13,73,100,15.55,NO,1675880678
347,bilibino,68.0546,166.4372,-42.07,100,99,0.68,RU,1675880421
348,namatanai,-3.6667,152.4333,26.05,82,100,0.9,PG,1675880678
349,bonavista,48.6499,-53.1147,-0.98,96,100,9.48,CA,1675880679
350,aborlan,9.4352,118.5492,26.04,89,97,2.51,PH,1675880679
351,tari,12.4086,4.4914,30.11,10,80,4.39,NG,1675880680
352,port blair,11.6667,92.75,27.02,69,40,3.09,IN,1675880680
353,saint-augustin,51.226,-58.6502,-6.02,87,100,2.01,CA,1675880681
354,okulovka,58.4008,33.2908,-1.66,95,100,3.39,RU,1675880681
355,illapel,-31.6308,-71.1653,30.53,43,0,4.24,CL,1675880682
356,tuatapere,-46.1333,167.6833,8.12,86,93,4.4,NZ,1675880630
357,clyde river,70.4692,-68.5914,-36.87,67,20,3.09,CA,1675880682
358,cardoso,-20.0819,-49.9142,28.86,64,73,1.21,BR,1675880683
359,lorengau,-2.0226,147.2712,24.53,85,100,3.42,PG,1675880476
360,souillac,-20.5167,57.5167,26.21,83,40,2.06,MU,1675880526
361,jardim,-21.4803,-56.1381,27.86,74,100,1.65,BR,1675880683
362,dauphin,51.1494,-100.0502,0.08,95,100,5.66,CA,1675880684
363,duluth,46.7833,-92.1066,3.91,68,0,2.57,US,1675880684
364,bowmore,34.9421,-79.3031,22.18,44,100,2.68,US,1675880684
365,shellbrook,53.2168,-106.4011,-2.43,86,100,3.07,CA,1675880685
366,hirara,24.8,125.2833,21.89,77,84,7.43,JP,1675880685
367,najran,17.4924,44.1277,23.36,17,73,1.65,SA,1675880686
368,manta,-0.95,-80.7333,28.88,74,75,4.12,EC,1675880686
369,tottori,35.5,134.2333,5.61,72,100,3.27,JP,1675880686
370,komsomolskiy,40.4272,71.7189,4.4,75,100,2.06,UZ,1675880687
371,hovd,48.0056,91.6419,-16.76,83,74,0.67,MN,1675880688
372,boa vista,2.8197,-60.6733,31.99,48,40,5.14,BR,1675880635
373,lamar,33.6668,-95.5836,12.95,98,100,2.06,US,1675880689
374,coihaique,-45.5752,-72.0662,22.97,46,75,4.63,CL,1675880690
375,walvis bay,-22.9575,14.5053,20.53,77,36,4.12,NA,1675880468
376,furstenwalde,52.3667,14.0667,0.21,70,3,2.97,DE,1675880691
377,santa cruz,-17.8,-63.1667,32.03,58,40,6.69,BO,1675880521
378,leningradskiy,69.3833,178.4167,-29.67,93,100,2.08,RU,1675880692
379,manggar,-2.8833,108.2667,25.71,85,81,2.7,ID,1675880692
380,minas,-34.3759,-55.2377,35.1,20,91,1.34,UY,1675880693
381,sobolevo,54.4299,31.8996,-6.42,96,99,3.51,RU,1675880693
382,lahad datu,5.0268,118.327,23.07,93,98,0.9,MY,1675880694
383,kaeo,-35.1,173.7833,14.62,93,16,1.87,NZ,1675880694
384,santa maria,-29.6842,-53.8069,34.61,31,20,1.54,BR,1675880498
385,college,64.8569,-147.8028,-16.34,82,100,0.0,US,1675880695
386,hasaki,35.7333,140.8333,3.22,57,85,7.65,JP,1675880695
387,alice springs,-23.7,133.8833,21.75,73,2,2.06,AU,1675880695
388,san pedro,14.35,121.0167,24.59,80,75,1.54,PH,1675880610
389,pandharpur,17.6667,75.3333,25.25,25,56,3.87,IN,1675880696
390,ikom,5.9667,8.7063,31.29,32,43,1.49,NG,1675880696
391,praia da vitoria,38.7333,-27.0667,13.75,88,75,5.57,PT,1675880697
392,scarborough,54.2797,-0.4044,5.76,65,65,4.02,GB,1675880697
393,omboue,-1.5746,9.2618,26.63,84,83,2.87,GA,1675880698
394,tuy hoa,13.0833,109.3,22.56,92,44,0.25,VN,1675880698
395,mackay,-21.15,149.2,25.93,81,99,11.47,AU,1675880698
396,high level,58.5169,-117.136,-15.94,92,20,1.03,CA,1675880699
397,garden city,42.3256,-83.331,7.97,62,0,4.12,US,1675880699
398,okakarara,-20.5833,17.4333,23.05,63,58,2.67,NA,1675880700
399,kutum,14.2,24.6667,16.65,11,69,4.91,SD,1675880701
400,challapata,-18.9,-66.7667,13.11,57,99,0.52,BO,1675880701
401,half moon bay,37.4636,-122.4286,15.28,76,0,6.17,US,1675880702
402,tiksi,71.6872,128.8694,-40.03,98,54,2.68,RU,1675880452
403,yuli,9.6989,10.2744,29.55,13,67,2.32,NG,1675880703
404,gat,31.61,34.7642,8.55,100,98,4.22,IL,1675880704
405,turayf,31.6725,38.6637,4.14,75,40,5.14,SA,1675880704
406,waitati,-45.75,170.5667,8.96,63,12,4.86,NZ,1675880705
407,sandpoint,48.2766,-116.5533,3.36,85,75,4.63,US,1675880706
408,general roca,-39.0333,-67.5833,34.79,18,0,4.28,AR,1675880707
409,kaka,37.3482,59.6143,7.57,79,97,6.07,TM,1675880707
410,dakar,14.6937,-17.4441,27.49,68,0,4.12,SN,1675880709
411,port victoria,0.0939,33.9756,23.81,67,44,4.66,KE,1675880710
412,hervey bay,-25.2986,152.8535,25.15,65,89,8.05,AU,1675880711
413,saint leonard,47.173,-67.9247,3.1,80,81,5.98,CA,1675880711
414,ralivka,49.5005,23.2406,-13.52,98,54,1.78,UA,1675880712
415,miramar,25.9873,-80.2323,27.23,53,100,5.66,US,1675880713
416,vuktyl,63.8567,57.3094,-2.44,84,82,5.5,RU,1675880713
417,novouzensk,50.4592,48.1431,-13.88,88,10,2.72,RU,1675880715
418,krasnoselkup,65.7,82.4667,-20.59,95,100,5.83,RU,1675880632
419,muros,42.7762,-9.0603,11.79,68,0,3.14,ES,1675880718
420,rundu,-17.9333,19.7667,23.82,68,93,2.25,NA,1675880720
421,inirida,3.8653,-67.9239,27.92,74,83,0.36,CO,1675880721
422,tautira,-17.7333,-149.15,26.39,74,7,3.09,PF,1675880723
423,bonthe,7.5264,-12.505,27.2,66,63,5.2,SL,1675880724
424,jalcocotan,21.4667,-105.1167,29.34,32,9,2.19,MX,1675880726
425,inuvik,68.3499,-133.7218,-29.52,76,75,0.0,CA,1675880727
426,gazanjyk,39.2446,55.5154,7.68,75,100,3.76,TM,1675880727
427,namibe,-15.1961,12.1522,22.92,71,99,5.94,AO,1675880728
428,francisco beltrao,-26.0811,-53.055,32.49,29,4,1.62,BR,1675880449
429,karratha,-20.7377,116.8463,30.0,65,34,1.97,AU,1675880732
430,dali,25.7,100.1833,5.05,60,0,2.4,CN,1675880732
431,elizabethtown,37.694,-85.8591,13.2,81,100,2.06,US,1675880734
432,izacic,44.875,15.7819,-4.28,87,100,2.22,BA,1675880735
433,gwanda,-20.9333,29.0,24.71,52,88,0.44,ZW,1675880735
434,kalmunai,7.4167,81.8167,24.75,86,68,2.94,LK,1675880736
435,guayaramerin,-10.8368,-65.3614,29.03,74,75,1.54,BO,1675880736
436,rudraprayag,30.2833,78.9833,12.18,39,3,1.65,IN,1675880738
437,khrisokhorafa,41.1833,23.2333,-0.61,44,10,0.5,GR,1675880738
438,olavarria,-36.8927,-60.3225,36.89,19,0,2.28,AR,1675880739
439,oriximina,-1.7656,-55.8661,31.8,54,72,1.66,BR,1675880740
440,san quintin,30.4833,-115.95,17.16,33,27,0.88,MX,1675880740
441,ozinki,51.1786,49.6769,-17.02,93,11,2.35,RU,1675880662
442,comodoro rivadavia,-45.8667,-67.5,30.92,19,0,7.2,AR,1675880582
443,volot,57.9278,30.7025,0.03,94,100,3.5,RU,1675880741
444,chiautla,19.5333,-98.8833,21.6,28,0,2.11,MX,1675880743
445,monaghan,54.25,-6.9667,7.99,90,100,8.65,IE,1675880743
446,rawlins,41.7911,-107.2387,-2.06,59,0,11.32,US,1675880744
447,bakel,14.905,-12.4568,35.45,9,47,3.95,SN,1675880744
448,owando,-0.4819,15.8999,28.45,38,39,0.22,CG,1675880745
449,biak,-0.9131,122.8766,23.99,82,100,1.91,ID,1675880745
450,xuddur,4.1213,43.8894,27.7,32,3,4.54,SO,1675880746
451,peniche,39.3558,-9.3811,12.38,74,94,9.48,PT,1675880746
452,usinsk,65.9939,57.5281,-1.59,86,100,13.49,RU,1675880458
453,enshi,30.3,109.4833,7.66,95,100,0.66,CN,1675880747
454,viedma,-40.8135,-62.9967,30.17,19,2,5.42,AR,1675880716
455,carora,10.1755,-70.0827,33.77,32,59,5.17,VE,1675880748
456,port lincoln,-34.7333,135.8667,18.58,80,55,4.94,AU,1675880748
457,bundu,23.1833,85.5833,20.12,31,0,2.29,IN,1675880749
458,basti,26.8,82.7167,12.9,48,0,3.55,IN,1675880749
459,fort-shevchenko,44.5086,50.263,-2.77,87,100,10.4,KZ,1675880749
460,umba,66.6871,34.3429,-0.94,83,82,7.26,RU,1675880750
461,mwinilunga,-11.7358,24.4293,16.75,91,97,2.01,ZM,1675880750
462,grindavik,63.8424,-22.4338,-3.03,86,75,14.4,IS,1675880751
463,vryburg,-26.9566,24.7284,17.8,81,100,6.23,ZA,1675880577
464,phan thiet,10.9333,108.1,23.11,85,20,3.82,VN,1675880751
465,saint-pierre,-21.3393,55.4781,25.82,78,0,7.72,RE,1675880660
466,kuytun,54.3419,101.5036,-17.65,98,93,1.55,RU,1675880752
467,chumikan,54.7183,135.315,-30.28,89,87,6.38,RU,1675880752
468,tromso,69.6496,18.957,6.01,70,75,18.01,NO,1675880752
469,porto novo,6.4965,2.6036,28.9,75,72,4.2,BJ,1675880753
470,dax,43.75,-1.1667,9.66,75,0,2.06,FR,1675880753
471,russell,32.3502,-85.1999,25.11,50,75,2.57,US,1675880637
472,zhigalovo,54.8097,105.1578,-22.66,100,98,0.63,RU,1675880754
473,conakry,9.538,-13.6773,29.04,65,2,3.09,GN,1675880754
474,biharamulo,-2.6319,31.3089,16.75,92,60,1.88,TZ,1675880755
475,lohardaga,23.4333,84.6833,14.6,36,0,2.66,IN,1675880755
476,plettenberg bay,-34.0527,23.3716,19.63,80,81,7.55,ZA,1675880756
477,tessalit,20.1986,1.0114,25.99,13,60,5.19,ML,1675880756
478,tezu,27.9167,96.1667,14.63,60,20,1.91,IN,1675880756
479,nelson bay,-32.7167,152.15,22.78,85,32,3.13,AU,1675880757
480,jimani,18.4917,-71.8502,31.94,29,0,3.74,DO,1675880757
481,honiara,-9.4333,159.95,25.83,85,100,1.44,SB,1675880758
482,roebourne,-20.7833,117.1333,30.08,66,19,2.26,AU,1675880758
483,zhigansk,66.7697,123.3711,-41.55,98,100,3.2,RU,1675880625
484,yaring,6.8662,101.3689,24.5,85,33,4.04,TH,1675880759
485,boueni,-12.9025,45.0761,27.99,74,84,2.71,YT,1675880759
486,ca mau,9.1769,105.15,24.75,86,9,3.98,VN,1675880760
487,saint-joseph,-21.3667,55.6167,25.21,81,43,5.67,RE,1675880675
488,turiacu,-1.6633,-45.3717,27.05,83,84,2.65,BR,1675880760
489,petropavlovsk-kamchatskiy,53.0452,158.6483,-18.46,85,40,2.0,RU,1675880760
490,malumfashi,11.7853,7.6218,24.96,14,100,4.06,NG,1675880761
491,saint anthony,45.0205,-93.218,4.03,66,0,5.14,US,1675880571
492,do gonbadan,30.3586,50.7981,10.05,53,20,5.14,IR,1675880762
493,diyarb najm,30.7542,31.4393,7.31,62,77,3.31,EG,1675880763
494,maceio,-9.6658,-35.7353,29.69,61,75,5.66,BR,1675880707
495,bullhead city,35.1478,-114.5683,17.06,32,40,7.2,US,1675880554
496,jablah,35.3614,35.9256,5.16,65,75,2.06,SY,1675880530
497,arlit,18.7369,7.3853,26.67,12,27,2.03,NE,1675880764
498,kaitangata,-46.2817,169.8464,8.9,74,52,5.9,NZ,1675880765
499,suhbaatar,50.2314,106.2078,-27.13,100,83,0.55,MN,1675880767
500,dalbandin,28.8947,64.4101,21.13,34,100,5.72,PK,1675880768
501,edirne,41.6772,26.556,-2.33,73,73,6.79,TR,1675880768
502,auki,-8.7676,160.7034,24.94,88,100,2.23,SB,1675880769
503,kultuk,51.7208,103.6956,-16.73,92,64,2.01,RU,1675880770
504,calvinia,-31.4707,19.776,21.76,53,60,8.49,ZA,1675880771
505,kasongo-lunda,-6.4667,16.8167,22.22,87,55,0.83,CD,1675880772
506,acapulco,16.8634,-99.8901,29.9,62,0,3.6,MX,1675880755
507,aktau,43.65,51.2,-3.68,75,100,10.11,KZ,1675880773
508,grand gaube,-20.0064,57.6608,26.32,77,99,2.68,MU,1675880748
509,svetlyy,54.675,20.1347,0.03,81,74,5.4,RU,1675880774
510,dryden,49.7833,-92.7503,-1.84,74,100,3.09,CA,1675880775
511,brandfort,-28.7001,26.4597,15.67,92,100,4.95,ZA,1675880776
512,lamani,14.2,-87.6167,27.9,31,6,3.27,HN,1675880777
513,dourbali,11.8091,15.8632,28.06,14,99,4.62,TD,1675880777
514,lakselv,70.0513,24.9718,4.9,60,0,16.98,NO,1675880778
515,taybad,34.74,60.7756,9.41,76,89,8.93,IR,1675880780
516,kununurra,-15.7667,128.7333,27.99,89,75,0.51,AU,1675880756
517,uglegorsk,49.0833,142.0333,-24.43,99,99,2.91,RU,1675880780
518,dalnerechensk,45.9339,133.7225,-19.93,98,98,1.64,RU,1675880781
519,tura,25.5198,90.2201,16.6,52,22,1.64,IN,1675880782
520,marang,5.2056,103.2059,25.95,86,78,0.77,MY,1675880783
521,khani,41.9563,42.9566,-1.24,97,98,0.73,GE,1675880784
522,batticaloa,7.7102,81.6924,25.44,84,70,3.43,LK,1675880760
523,simao,22.7886,100.9748,10.28,41,0,0.4,CN,1675880785
524,dicabisagan,17.0818,122.4157,23.25,84,97,0.39,PH,1675880787
525,coahuayana,18.7333,-103.6833,29.78,46,0,2.59,MX,1675880789
526,progreso,21.2833,-89.6667,32.06,52,0,4.74,MX,1675880789
527,faya,18.3851,42.4509,14.06,69,97,0.95,SA,1675880790
528,churapcha,62.0025,132.4325,-42.79,100,99,0.99,RU,1675880791
529,mitchell,43.7094,-98.0298,1.17,74,0,4.47,US,1675880505
530,ritterhude,53.1811,8.7216,2.03,67,0,4.63,DE,1675880792
531,abengourou,6.7297,-3.4964,30.49,49,88,1.96,CI,1675880793
532,los llanos de aridane,28.6585,-17.9182,15.86,70,75,2.06,ES,1675880793
533,ust-nera,64.5667,143.2,-41.14,98,91,0.37,RU,1675880794
534,oconomowoc,43.1117,-88.4993,6.88,58,0,2.57,US,1675880717
535,atar,20.5169,-13.0499,25.48,13,100,4.56,MR,1675880796
536,tianpeng,30.9866,103.9393,11.46,92,99,2.64,CN,1675880796
537,sorong,-0.8833,131.25,25.95,84,100,8.1,ID,1675880797
538,kenai,60.5544,-151.2583,-5.95,86,100,2.57,US,1675880797
539,hirna,9.2167,41.1,17.43,48,10,2.2,ET,1675880798
540,svetlaya,46.5389,138.3297,-15.92,68,4,2.86,RU,1675880799
541,great bend,38.3645,-98.7648,10.02,43,0,1.54,US,1675880519
542,challans,46.8436,-1.8749,5.11,78,0,3.42,FR,1675880799
543,sidi ali,36.0998,0.4206,11.19,78,3,4.17,DZ,1675880800
544,pontypridd,51.6021,-3.3421,5.67,86,35,0.45,GB,1675880800
545,otaki,-40.7583,175.15,14.6,81,30,1.17,NZ,1675880801
546,inongo,-1.95,18.2667,25.65,73,67,0.92,CD,1675880801
547,celestun,20.8667,-90.4,29.34,54,11,3.81,MX,1675880802
548,port-gentil,-0.7193,8.7815,27.98,83,20,3.09,GA,1675880802
549,hofn,64.2539,-15.2082,-2.86,53,47,3.88,IS,1675880802
550,cascais,38.6979,-9.4215,13.06,72,75,6.71,PT,1675880803
